$GPRMC,030116.557,V,3830.519,N,07656.999,W,67.8,21.51,011015,,E*75
$GPGGA,030117.557,3830.519,N,07656.999,W,0,00,,,M,,M,,*5C
$GPGLL,3830.519,N,07656.999,W,030118.557,V*33
$GPRMC,030119.557,V,3919.506,N,07707.783,W,26.3,11.10,011015,,E*76
$GPGGA,030120.557,3919.506,N,07707.783,W,0,00,,,M,,M,,*5C
$GPGLL,3919.506,N,07707.783,W,030121.557,V*3D
$GPRMC,030122.557,V,3908.706,N,07620.735,W,15.9,31.75,011015,,E*7E
$GPGGA,030123.557,3908.706,N,07620.735,W,0,00,,,M,,M,,*54
$GPGLL,3908.706,N,07620.735,W,030124.557,V*33
$GPRMC,030125.557,V,3912.508,N,07636.098,W,18.0,0.10,011015,,E*4C
$GPGGA,030126.557,3912.508,N,07636.098,W,0,00,,,M,,M,,*51
$GPGLL,3912.508,N,07636.098,W,030127.557,V*30
$GPRMC,030128.557,V,3847.230,N,07718.756,W,41.3,21.82,011015,,E*73
$GPGGA,030129.557,3847.230,N,07718.756,W,0,00,,,M,,M,,*5B
$GPGLL,3847.230,N,07718.756,W,030130.557,V*33
$GPRMC,030131.557,V,3917.469,N,07726.855,W,86.6,30.51,011015,,E*74
$GPGGA,030132.557,3917.469,N,07726.855,W,0,00,,,M,,M,,*5E
$GPGLL,3917.469,N,07726.855,W,030133.557,V*3F
$GPRMC,030134.557,V,3833.583,N,07712.479,W,11.7,22.31,011015,,E*7C
$GPGGA,030135.557,3833.583,N,07712.479,W,0,00,,,M,,M,,*5E
$GPGLL,3833.583,N,07712.479,W,030136.557,V*3D
$GPRMC,030137.557,V,3836.917,N,07722.686,W,5.3,43.64,011015,,E*4C
$GPGGA,030138.557,3836.917,N,07722.686,W,0,00,,,M,,M,,*56
$GPGLL,3836.917,N,07722.686,W,030139.557,V*37
$GPRMC,030140.557,V,3743.578,N,07635.374,W,48.4,30.41,011015,,E*76
$GPGGA,030141.557,3743.578,N,07635.374,W,0,00,,,M,,M,,*5F
$GPGLL,3743.578,N,07635.374,W,030142.557,V*3C
$GPRMC,030143.557,V,3741.131,N,07724.172,W,91.7,22.35,011015,,E*7C
$GPGGA,030144.557,3741.131,N,07724.172,W,0,00,,,M,,M,,*54
$GPGLL,3741.131,N,07724.172,W,030145.557,V*35
$GPRMC,030146.557,V,3803.385,N,07645.244,W,76.1,28.44,011015,,E*7E
$GPGGA,030147.557,3803.385,N,07645.244,W,0,00,,,M,,M,,*53
$GPGLL,3803.385,N,07645.244,W,030148.557,V*3C
$GPRMC,030149.557,V,3747.959,N,07547.999,W,5.6,16.85,011015,,E*4C
$GPGGA,030150.557,3747.959,N,07547.999,W,0,00,,,M,,M,,*5B
$GPGLL,3747.959,N,07547.999,W,030151.557,V*3A
$GPRMC,030152.557,V,3825.198,N,07520.830,W,33.2,9.57,011015,,E*4B
$GPGGA,030153.557,3825.198,N,07520.830,W,0,00,,,M,,M,,*55
$GPGLL,3825.198,N,07520.830,W,030154.557,V*32
$GPRMC,030155.557,V,3811.640,N,07559.760,W,46.4,6.34,011015,,E*43
$GPGGA,030156.557,3811.640,N,07559.760,W,0,00,,,M,,M,,*51
$GPGLL,3811.640,N,07559.760,W,030157.557,V*30
$GPRMC,030158.557,V,3825.652,N,07547.922,W,7.4,7.84,011015,,E*72
$GPGGA,030159.557,3825.652,N,07547.922,W,0,00,,,M,,M,,*5D
$GPGLL,3825.652,N,07547.922,W,030200.557,V*32
$GPRMC,030201.557,V,3755.353,N,07612.173,W,94.3,9.81,011015,,E*48
$GPGGA,030202.557,3755.353,N,07612.173,W,0,00,,,M,,M,,*53
$GPGLL,3755.353,N,07612.173,W,030203.557,V*32
$GPRMC,030204.557,V,3657.468,N,07648.731,W,89.1,25.79,011015,,E*79
$GPGGA,030205.557,3657.468,N,07648.731,W,0,00,,,M,,M,,*57
$GPGLL,3657.468,N,07648.731,W,030206.557,V*34
$GPRMC,030207.557,V,3714.421,N,07726.201,W,68.4,44.66,011015,,E*7D
$GPGGA,030208.557,3714.421,N,07726.201,W,0,00,,,M,,M,,*5E
$GPGLL,3714.421,N,07726.201,W,030209.557,V*3F
$GPRMC,030210.557,V,3623.490,N,07626.352,W,81.9,2.09,011015,,E*43
$GPGGA,030211.557,3623.490,N,07626.352,W,0,00,,,M,,M,,*5F
$GPGLL,3623.490,N,07626.352,W,030212.557,V*3C
$GPRMC,030213.557,V,3523.534,N,07718.544,W,29.3,44.76,011015,,E*73
$GPGGA,030214.557,3523.534,N,07718.544,W,0,00,,,M,,M,,*5B
$GPGLL,3523.534,N,07718.544,W,030215.557,V*3A
$GPRMC,030216.557,V,3544.317,N,07757.904,W,52.9,28.37,011015,,E*7A
$GPGGA,030217.557,3544.317,N,07757.904,W,0,00,,,M,,M,,*5D
$GPGLL,3544.317,N,07757.904,W,030218.557,V*32
$GPRMC,030219.557,V,3628.978,N,07708.627,W,51.8,25.20,011015,,E*72
$GPGGA,030220.557,3628.978,N,07708.627,W,0,00,,,M,,M,,*57
$GPGLL,3628.978,N,07708.627,W,030221.557,V*36
$GPRMC,030222.557,V,3552.851,N,07808.154,W,21.5,12.68,011015,,E*70
$GPGGA,030223.557,3552.851,N,07808.154,W,0,00,,,M,,M,,*5C
$GPGLL,3552.851,N,07808.154,W,030224.557,V*3B
$GPRMC,030225.557,V,3455.298,N,07849.323,W,77.4,22.21,011015,,E*75
$GPGGA,030226.557,3455.298,N,07849.323,W,0,00,,,M,,M,,*57
$GPGLL,3455.298,N,07849.323,W,030227.557,V*36
$GPRMC,030228.557,V,3359.000,N,07933.753,W,23.9,25.62,011015,,E*73
$GPGGA,030229.557,3359.000,N,07933.753,W,0,00,,,M,,M,,*5F
$GPGLL,3359.000,N,07933.753,W,030230.557,V*37
$GPRMC,030231.557,V,3303.240,N,08028.348,W,11.0,5.40,011015,,E*4A
$GPGGA,030232.557,3303.240,N,08028.348,W,0,00,,,M,,M,,*5E
$GPGLL,3303.240,N,08028.348,W,030233.557,V*3F
$GPRMC,030234.557,V,3223.496,N,08007.243,W,18.6,39.78,011015,,E*7D
$GPGGA,030235.557,3223.496,N,08007.243,W,0,00,,,M,,M,,*50
$GPGLL,3223.496,N,08007.243,W,030236.557,V*33
$GPRMC,030237.557,V,3256.572,N,08034.211,W,99.0,41.65,011015,,E*7C
$GPGGA,030238.557,3256.572,N,08034.211,W,0,00,,,M,,M,,*53
$GPGLL,3256.572,N,08034.211,W,030239.557,V*32
$GPRMC,030240.557,V,3210.838,N,08008.567,W,70.2,23.46,011015,,E*74
$GPGGA,030241.557,3210.838,N,08008.567,W,0,00,,,M,,M,,*55
$GPGLL,3210.838,N,08008.567,W,030242.557,V*36
$GPRMC,030243.557,V,3250.215,N,07947.974,W,34.4,10.66,011015,,E*71
$GPGGA,030244.557,3250.215,N,07947.974,W,0,00,,,M,,M,,*52
$GPGLL,3250.215,N,07947.974,W,030245.557,V*33
$GPRMC,030122.163,V,3905.699,N,07706.708,W,3.6,21.31,011015,,E*45
$GPGGA,030123.163,3905.699,N,07706.708,W,0,00,,,M,,M,,*56
$GPGLL,3905.699,N,07706.708,W,030124.163,V*31
$GPRMC,030125.163,V,3925.795,N,07803.197,W,52.7,17.28,011015,,E*7F
$GPGGA,030126.163,3925.795,N,07803.197,W,0,00,,,M,,M,,*56
$GPGLL,3925.795,N,07803.197,W,030127.163,V*37
$GPRMC,030128.163,V,3831.007,N,07805.910,W,44.0,35.04,011015,,E*75
$GPGGA,030129.163,3831.007,N,07805.910,W,0,00,,,M,,M,,*50
$GPGLL,3831.007,N,07805.910,W,030130.163,V*38
$GPRMC,030131.163,V,3906.757,N,07748.955,W,32.3,21.53,011015,,E*78
$GPGGA,030132.163,3906.757,N,07748.955,W,0,00,,,M,,M,,*5A
$GPGLL,3906.757,N,07748.955,W,030133.163,V*3B
$GPRMC,030134.163,V,3858.165,N,07655.564,W,60.1,18.05,011015,,E*7F
$GPGGA,030135.163,3858.165,N,07655.564,W,0,00,,,M,,M,,*53
$GPGLL,3858.165,N,07655.564,W,030136.163,V*30
$GPRMC,030137.163,V,3804.601,N,07712.881,W,65.4,21.38,011015,,E*70
$GPGGA,030138.163,3804.601,N,07712.881,W,0,00,,,M,,M,,*56
$GPGLL,3804.601,N,07712.881,W,030139.163,V*37
$GPRMC,030140.163,V,3857.864,N,07706.312,W,90.8,35.53,011015,,E*71
$GPGGA,030141.163,3857.864,N,07706.312,W,0,00,,,M,,M,,*57
$GPGLL,3857.864,N,07706.312,W,030142.163,V*34
$GPRMC,030143.163,V,3920.616,N,07801.733,W,0.8,11.73,011015,,E*4A
$GPGGA,030144.163,3920.616,N,07801.733,W,0,00,,,M,,M,,*57
$GPGLL,3920.616,N,07801.733,W,030145.163,V*36
$GPRMC,030146.163,V,3955.863,N,07850.026,W,87.7,44.75,011015,,E*70
$GPGGA,030147.163,3955.863,N,07850.026,W,0,00,,,M,,M,,*5D
$GPGLL,3955.863,N,07850.026,W,030148.163,V*32
$GPRMC,030149.163,V,4021.849,N,07908.145,W,91.4,44.51,011015,,E*70
$GPGGA,030150.163,4021.849,N,07908.145,W,0,00,,,M,,M,,*56
$GPGLL,4021.849,N,07908.145,W,030151.163,V*37
$GPRMC,030152.163,V,4057.546,N,07909.589,W,65.2,3.59,011015,,E*4A
$GPGGA,030153.163,4057.546,N,07909.589,W,0,00,,,M,,M,,*53
$GPGLL,4057.546,N,07909.589,W,030154.163,V*34
$GPRMC,030155.163,V,4043.424,N,07906.288,W,91.4,29.45,011015,,E*7C
$GPGGA,030156.163,4043.424,N,07906.288,W,0,00,,,M,,M,,*5F
$GPGLL,4043.424,N,07906.288,W,030157.163,V*3E
$GPRMC,030158.163,V,3946.072,N,07813.007,W,11.1,31.21,011015,,E*7B
$GPGGA,030159.163,3946.072,N,07813.007,W,0,00,,,M,,M,,*5C
$GPGLL,3946.072,N,07813.007,W,030200.163,V*33
$GPRMC,030201.163,V,3939.865,N,07842.171,W,53.9,0.76,011015,,E*48
$GPGGA,030202.163,3939.865,N,07842.171,W,0,00,,,M,,M,,*53
$GPGLL,3939.865,N,07842.171,W,030203.163,V*32
$GPRMC,030204.163,V,3843.302,N,07917.011,W,21.5,33.14,011015,,E*70
$GPGGA,030205.163,3843.302,N,07917.011,W,0,00,,,M,,M,,*54
$GPGLL,3843.302,N,07917.011,W,030206.163,V*37
$GPRMC,030207.163,V,3820.140,N,07909.355,W,72.5,2.88,011015,,E*4F
$GPGGA,030208.163,3820.140,N,07909.355,W,0,00,,,M,,M,,*54
$GPGLL,3820.140,N,07909.355,W,030209.163,V*35
$GPRMC,030210.163,V,3743.940,N,07853.933,W,54.7,33.87,011015,,E*74
$GPGGA,030211.163,3743.940,N,07853.933,W,0,00,,,M,,M,,*5A
$GPGLL,3743.940,N,07853.933,W,030212.163,V*39
$GPRMC,030213.163,V,3733.372,N,07847.578,W,39.0,4.15,011015,,E*4E
$GPGGA,030214.163,3733.372,N,07847.578,W,0,00,,,M,,M,,*55
$GPGLL,3733.372,N,07847.578,W,030215.163,V*34
$GPRMC,030216.163,V,3652.071,N,07933.670,W,41.7,9.50,011015,,E*40
$GPGGA,030217.163,3652.071,N,07933.670,W,0,00,,,M,,M,,*59
$GPGLL,3652.071,N,07933.670,W,030218.163,V*36
$GPRMC,030219.163,V,3558.561,N,07927.742,W,45.8,39.85,011015,,E*77
$GPGGA,030220.163,3558.561,N,07927.742,W,0,00,,,M,,M,,*55
$GPGLL,3558.561,N,07927.742,W,030221.163,V*34
$GPRMC,030222.163,V,3551.292,N,08014.321,W,36.3,14.53,011015,,E*71
$GPGGA,030223.163,3551.292,N,08014.321,W,0,00,,,M,,M,,*53
$GPGLL,3551.292,N,08014.321,W,030224.163,V*34
$GPRMC,030225.163,V,3619.306,N,08016.405,W,59.1,16.94,011015,,E*74
$GPGGA,030226.163,3619.306,N,08016.405,W,0,00,,,M,,M,,*56
$GPGLL,3619.306,N,08016.405,W,030227.163,V*37
$GPRMC,030228.163,V,3541.762,N,08113.313,W,3.8,25.37,011015,,E*4A
$GPGGA,030229.163,3541.762,N,08113.313,W,0,00,,,M,,M,,*55
$GPGLL,3541.762,N,08113.313,W,030230.163,V*3D
$GPRMC,030231.163,V,3512.975,N,08104.004,W,71.1,13.99,011015,,E*72
$GPGGA,030232.163,3512.975,N,08104.004,W,0,00,,,M,,M,,*52
$GPGLL,3512.975,N,08104.004,W,030233.163,V*33
$GPRMC,030234.163,V,3527.404,N,08109.138,W,85.8,16.46,011015,,E*7C
$GPGGA,030235.163,3527.404,N,08109.138,W,0,00,,,M,,M,,*5B
$GPGLL,3527.404,N,08109.138,W,030236.163,V*38
$GPRMC,030237.163,V,3511.144,N,08043.748,W,96.9,13.42,011015,,E*77
$GPGGA,030238.163,3511.144,N,08043.748,W,0,00,,,M,,M,,*5C
$GPGLL,3511.144,N,08043.748,W,030239.163,V*3D
$GPRMC,030240.163,V,3532.221,N,08102.858,W,5.9,14.67,011015,,E*46
$GPGGA,030241.163,3532.221,N,08102.858,W,0,00,,,M,,M,,*59
$GPGLL,3532.221,N,08102.858,W,030242.163,V*3A
$GPRMC,030243.163,V,3448.921,N,08155.067,W,52.4,20.39,011015,,E*77
$GPGGA,030244.163,3448.921,N,08155.067,W,0,00,,,M,,M,,*5D
$GPGLL,3448.921,N,08155.067,W,030245.163,V*3C
$GPRMC,030246.163,V,3535.741,N,08207.117,W,52.5,13.08,011015,,E*70
$GPGGA,030247.163,3535.741,N,08207.117,W,0,00,,,M,,M,,*5F
$GPGLL,3535.741,N,08207.117,W,030248.163,V*30
$GPRMC,030249.163,V,3535.572,N,08132.875,W,59.4,3.34,011015,,E*41
$GPGGA,030250.163,3535.572,N,08132.875,W,0,00,,,M,,M,,*53
$GPGLL,3535.572,N,08132.875,W,030251.163,V*32
$GPRMC,030126.778,V,3826.261,N,07638.743,W,25.0,13.58,011015,,E*71
$GPGGA,030127.778,3826.261,N,07638.743,W,0,00,,,M,,M,,*5E
$GPGLL,3826.261,N,07638.743,W,030128.778,V*31
$GPRMC,030129.778,V,3749.682,N,07736.354,W,74.8,38.42,011015,,E*72
$GPGGA,030130.778,3749.682,N,07736.354,W,0,00,,,M,,M,,*5A
$GPGLL,3749.682,N,07736.354,W,030131.778,V*3B
$GPRMC,030132.778,V,3755.999,N,07638.164,W,10.5,17.75,011015,,E*78
$GPGGA,030133.778,3755.999,N,07638.164,W,0,00,,,M,,M,,*5F
$GPGLL,3755.999,N,07638.164,W,030134.778,V*38
$GPRMC,030135.778,V,3750.605,N,07641.499,W,37.6,2.19,011015,,E*41
$GPGGA,030136.778,3750.605,N,07641.499,W,0,00,,,M,,M,,*5C
$GPGLL,3750.605,N,07641.499,W,030137.778,V*3D
$GPRMC,030138.778,V,3824.617,N,07722.469,W,46.7,42.28,011015,,E*79
$GPGGA,030139.778,3824.617,N,07722.469,W,0,00,,,M,,M,,*57
$GPGLL,3824.617,N,07722.469,W,030140.778,V*39
$GPRMC,030141.778,V,3757.380,N,07724.218,W,35.6,16.54,011015,,E*7E
$GPGGA,030142.778,3757.380,N,07724.218,W,0,00,,,M,,M,,*5D
$GPGLL,3757.380,N,07724.218,W,030143.778,V*3C
$GPRMC,030144.778,V,3749.468,N,07742.848,W,82.6,32.63,011015,,E*74
$GPGGA,030145.778,3749.468,N,07742.848,W,0,00,,,M,,M,,*5B
$GPGLL,3749.468,N,07742.848,W,030146.778,V*38
$GPRMC,030147.778,V,3802.819,N,07819.339,W,77.1,19.37,011015,,E*74
$GPGGA,030148.778,3802.819,N,07819.339,W,0,00,,,M,,M,,*50
$GPGLL,3802.819,N,07819.339,W,030149.778,V*31
$GPRMC,030150.778,V,3858.787,N,07811.920,W,90.4,2.45,011015,,E*4C
$GPGGA,030151.778,3858.787,N,07811.920,W,0,00,,,M,,M,,*55
$GPGLL,3858.787,N,07811.920,W,030152.778,V*36
$GPRMC,030153.778,V,3848.487,N,07803.086,W,9.2,13.01,011015,,E*4D
$GPGGA,030154.778,3848.487,N,07803.086,W,0,00,,,M,,M,,*54
$GPGLL,3848.487,N,07803.086,W,030155.778,V*35
$GPRMC,030156.778,V,3940.612,N,07834.154,W,65.3,29.63,011015,,E*73
$GPGGA,030157.778,3940.612,N,07834.154,W,0,00,,,M,,M,,*5A
$GPGLL,3940.612,N,07834.154,W,030158.778,V*35
$GPRMC,030159.778,V,3951.399,N,07809.359,W,65.6,22.47,011015,,E*73
$GPGGA,030200.778,3951.399,N,07809.359,W,0,00,,,M,,M,,*5C
$GPGLL,3951.399,N,07809.359,W,030201.778,V*3D
$GPRMC,030202.778,V,3905.324,N,07720.588,W,85.9,34.51,011015,,E*76
$GPGGA,030203.778,3905.324,N,07720.588,W,0,00,,,M,,M,,*56
$GPGLL,3905.324,N,07720.588,W,030204.778,V*31
$GPRMC,030205.778,V,3939.720,N,07800.664,W,14.1,24.60,011015,,E*71
$GPGGA,030206.778,3939.720,N,07800.664,W,0,00,,,M,,M,,*50
$GPGLL,3939.720,N,07800.664,W,030207.778,V*31
$GPRMC,030208.778,V,3910.938,N,07713.071,W,99.1,12.37,011015,,E*7D
$GPGGA,030209.778,3910.938,N,07713.071,W,0,00,,,M,,M,,*5C
$GPGLL,3910.938,N,07713.071,W,030210.778,V*34
$GPRMC,030211.778,V,3812.181,N,07724.454,W,48.2,36.40,011015,,E*72
$GPGGA,030212.778,3812.181,N,07724.454,W,0,00,,,M,,M,,*58
$GPGLL,3812.181,N,07724.454,W,030213.778,V*39
$GPRMC,030214.778,V,3901.623,N,07631.756,W,24.5,28.65,011015,,E*7A
$GPGGA,030215.778,3901.623,N,07631.756,W,0,00,,,M,,M,,*57
$GPGLL,3901.623,N,07631.756,W,030216.778,V*34
$GPRMC,030217.778,V,3908.167,N,07532.374,W,94.4,6.12,011015,,E*45
$GPGGA,030218.778,3908.167,N,07532.374,W,0,00,,,M,,M,,*50
$GPGLL,3908.167,N,07532.374,W,030219.778,V*31
$GPRMC,030220.778,V,3848.616,N,07517.691,W,14.4,28.97,011015,,E*75
$GPGGA,030221.778,3848.616,N,07517.691,W,0,00,,,M,,M,,*57
$GPGLL,3848.616,N,07517.691,W,030222.778,V*34
$GPRMC,030223.778,V,3821.809,N,07545.878,W,65.5,23.84,011015,,E*79
$GPGGA,030224.778,3821.809,N,07545.878,W,0,00,,,M,,M,,*53
$GPGLL,3821.809,N,07545.878,W,030225.778,V*32
$GPRMC,030226.778,V,3844.724,N,07504.081,W,53.9,33.55,011015,,E*70
$GPGGA,030227.778,3844.724,N,07504.081,W,0,00,,,M,,M,,*58
$GPGLL,3844.724,N,07504.081,W,030228.778,V*37
$GPRMC,030229.778,V,3841.092,N,07541.342,W,82.9,13.73,011015,,E*77
$GPGGA,030230.778,3841.092,N,07541.342,W,0,00,,,M,,M,,*5C
$GPGLL,3841.092,N,07541.342,W,030231.778,V*3D
$GPRMC,030232.778,V,3805.752,N,07508.040,W,0.2,3.09,011015,,E*77
$GPGGA,030233.778,3805.752,N,07508.040,W,0,00,,,M,,M,,*58
$GPGLL,3805.752,N,07508.040,W,030234.778,V*3F
$GPRMC,030235.778,V,3801.386,N,07458.913,W,79.3,11.40,011015,,E*73
$GPGGA,030236.778,3801.386,N,07458.913,W,0,00,,,M,,M,,*5F
$GPGLL,3801.386,N,07458.913,W,030237.778,V*3E
$GPRMC,030238.778,V,3722.082,N,07452.952,W,96.5,27.50,011015,,E*7B
$GPGGA,030239.778,3722.082,N,07452.952,W,0,00,,,M,,M,,*56
$GPGLL,3722.082,N,07452.952,W,030240.778,V*38
$GPRMC,030241.778,V,3750.273,N,07402.029,W,45.3,8.75,011015,,E*4E
$GPGGA,030242.778,3750.273,N,07402.029,W,0,00,,,M,,M,,*53
$GPGLL,3750.273,N,07402.029,W,030243.778,V*32
$GPRMC,030244.778,V,3659.359,N,07310.599,W,28.3,42.72,011015,,E*72
$GPGGA,030245.778,3659.359,N,07310.599,W,0,00,,,M,,M,,*5F
$GPGLL,3659.359,N,07310.599,W,030246.778,V*3C
$GPRMC,030247.778,V,3741.235,N,07301.490,W,57.5,5.27,011015,,E*47
$GPGGA,030248.778,3741.235,N,07301.490,W,0,00,,,M,,M,,*59
$GPGLL,3741.235,N,07301.490,W,030249.778,V*38
$GPRMC,030250.778,V,3838.315,N,07330.803,W,56.1,37.04,011015,,E*72
$GPGGA,030251.778,3838.315,N,07330.803,W,0,00,,,M,,M,,*57
$GPGLL,3838.315,N,07330.803,W,030252.778,V*34
$GPRMC,030253.778,V,3828.664,N,07245.351,W,33.8,16.11,011015,,E*71
$GPGGA,030254.778,3828.664,N,07245.351,W,0,00,,,M,,M,,*5F
$GPGLL,3828.664,N,07245.351,W,030255.778,V*3E
$GPRMC,030138.926,V,3833.220,N,07758.575,W,10.5,43.39,011015,,E*7B
$GPGGA,030139.926,3833.220,N,07758.575,W,0,00,,,M,,M,,*55
$GPGLL,3833.220,N,07758.575,W,030140.926,V*3B
$GPRMC,030141.926,V,3808.382,N,07748.988,W,53.5,16.07,011015,,E*71
$GPGGA,030142.926,3808.382,N,07748.988,W,0,00,,,M,,M,,*57
$GPGLL,3808.382,N,07748.988,W,030143.926,V*36
$GPRMC,030144.926,V,3819.398,N,07844.181,W,83.4,28.08,011015,,E*73
$GPGGA,030145.926,3819.398,N,07844.181,W,0,00,,,M,,M,,*59
$GPGLL,3819.398,N,07844.181,W,030146.926,V*3A
$GPRMC,030147.926,V,3805.983,N,07814.965,W,53.0,15.40,011015,,E*71
$GPGGA,030148.926,3805.983,N,07814.965,W,0,00,,,M,,M,,*5E
$GPGLL,3805.983,N,07814.965,W,030149.926,V*3F
$GPRMC,030150.926,V,3707.854,N,07831.097,W,36.6,14.34,011015,,E*75
$GPGGA,030151.926,3707.854,N,07831.097,W,0,00,,,M,,M,,*53
$GPGLL,3707.854,N,07831.097,W,030152.926,V*30
$GPRMC,030153.926,V,3629.429,N,07737.254,W,1.7,8.92,011015,,E*7D
$GPGGA,030154.926,3629.429,N,07737.254,W,0,00,,,M,,M,,*59
$GPGLL,3629.429,N,07737.254,W,030155.926,V*38
$GPRMC,030156.926,V,3659.095,N,07750.121,W,5.9,25.13,011015,,E*40
$GPGGA,030157.926,3659.095,N,07750.121,W,0,00,,,M,,M,,*5E
$GPGLL,3659.095,N,07750.121,W,030158.926,V*31
$GPRMC,030159.926,V,3649.660,N,07834.911,W,27.8,34.76,011015,,E*76
$GPGGA,030200.926,3649.660,N,07834.911,W,0,00,,,M,,M,,*54
$GPGLL,3649.660,N,07834.911,W,030201.926,V*35
$GPRMC,030202.926,V,3600.789,N,07745.767,W,10.8,36.76,011015,,E*70
$GPGGA,030203.926,3600.789,N,07745.767,W,0,00,,,M,,M,,*5A
$GPGLL,3600.789,N,07745.767,W,030204.926,V*3D
$GPRMC,030205.926,V,3647.802,N,07754.260,W,46.6,30.07,011015,,E*77
$GPGGA,030206.926,3647.802,N,07754.260,W,0,00,,,M,,M,,*52
$GPGLL,3647.802,N,07754.260,W,030207.926,V*33
